[
  {
    "name": "MiladTower",
    "translations": { "fa": "برج میلاد" },
    "latitude": "35.7448",
    "longitude": "51.3752"
  },
  {
    "name": "AzadiTower",
    "translations": { "fa": "برج آزادی" },
    "latitude": "35.6997",
    "longitude": "51.3370"
  },
  {
    "name": "NiavaranPalace",
    "translations": { "fa": "کاخ نیاوران" },
    "latitude": "35.8251",
    "longitude": "51.4863"
  },
  {
    "name": "SaadabadPalace",
    "translations": { "fa": "کاخ سعدآباد" },
    "latitude": "35.8226",
    "longitude": "51.4754"
  },
  {
    "name": "GolestanPalace",
    "translations": { "fa": "کاخ گلستان" },
    "latitude": "35.6780",
    "longitude": "51.4195"
  },
  {
    "name": "TehranBazaar",
    "translations": { "fa": "بازار بزرگ تهران" },
    "latitude": "35.6730",
    "longitude": "51.4142"
  },
  {
    "name": "NatureBridge",
    "translations": { "fa": "پل طبیعت" },
    "latitude": "35.7632",
    "longitude": "51.4036"
  },
  {
    "name": "AbginehMuseum",
    "translations": { "fa": "موزه آبگینه" },
    "latitude": "35.6994",
    "longitude": "51.4098"
  },
  {
    "name": "ContemporaryArtMuseum",
    "translations": { "fa": "موزه هنرهای معاصر" },
    "latitude": "35.7036",
    "longitude": "51.3925"
  },
  {
    "name": "NationalMuseum",
    "translations": { "fa": "موزه ملی ایران" },
    "latitude": "35.6891",
    "longitude": "51.4113"
  },
  {
    "name": "TabiatPark",
    "translations": { "fa": "پارک طبعیت" },
    "latitude": "35.7635",
    "longitude": "51.4037"
  },
  {
    "name": "JamshidiehPark",
    "translations": { "fa": "پارک جمشیدیه" },
    "latitude": "35.8212",
    "longitude": "51.4885"
  },
  {
    "name": "MellatPark",
    "translations": { "fa": "پارک ملت" },
    "latitude": "35.7484",
    "longitude": "51.3923"
  },
  {
    "name": "LalehPark",
    "translations": { "fa": "پارک لاله" },
    "latitude": "35.7070",
    "longitude": "51.3929"
  },
  {
    "name": "Darband",
    "translations": { "fa": "دربند" },
    "latitude": "35.8253",
    "longitude": "51.4576"
  },
  {
    "name": "Darakeh",
    "translations": { "fa": "دراکِه" },
    "latitude": "35.8014",
    "longitude": "51.4030"
  },
  {
    "name": "BamTehran",
    "translations": { "fa": "بام تهران" },
    "latitude": "35.8021",
    "longitude": "51.4157"
  },
  {
    "name": "IranMall",
    "translations": { "fa": "ایران مال" },
    "latitude": "35.7548",
    "longitude": "51.2144"
  },
  {
    "name": "BookGarden",
    "translations": { "fa": "باغ کتاب تهران" },
    "latitude": "35.7445",
    "longitude": "51.4029"
  },
  {
    "name": "HolyDefenseMuseum",
    "translations": { "fa": "موزه دفاع مقدس" },
    "latitude": "35.7441",
    "longitude": "51.3963"
  }
]
